{
  "_note": "전국 시군구 마스터. 재배계획 등록 시 code/name 검증에 사용. 좌표는 지도 표시용 근사값.",
  "regions": [
    { "code": "11110", "name": "종로구", "province": "서울", "lat": 37.573, "lng": 126.979 },
    { "code": "23010", "name": "강화군", "province": "인천", "lat": 37.747, "lng": 126.487 },
    { "code": "31040", "name": "이천시", "province": "경기", "lat": 37.272, "lng": 127.435 },
    { "code": "31050", "name": "안성시", "province": "경기", "lat": 37.008, "lng": 127.279 },
    { "code": "31060", "name": "여주시", "province": "경기", "lat": 37.298, "lng": 127.637 },
    { "code": "31070", "name": "포천시", "province": "경기", "lat": 37.895, "lng": 127.200 },
    { "code": "32010", "name": "평창군", "province": "강원", "lat": 37.370, "lng": 128.390 },
    { "code": "32020", "name": "홍천군", "province": "강원", "lat": 37.697, "lng": 127.889 },
    { "code": "32030", "name": "횡성군", "province": "강원", "lat": 37.491, "lng": 127.985 },
    { "code": "32040", "name": "정선군", "province": "강원", "lat": 37.380, "lng": 128.661 },
    { "code": "32050", "name": "강릉시", "province": "강원", "lat": 37.752, "lng": 128.876 },
    { "code": "33010", "name": "괴산군", "province": "충북", "lat": 36.815, "lng": 127.787 },
    { "code": "33020", "name": "충주시", "province": "충북", "lat": 36.991, "lng": 127.926 },
    { "code": "33030", "name": "단양군", "province": "충북", "lat": 36.985, "lng": 128.365 },
    { "code": "33040", "name": "음성군", "province": "충북", "lat": 36.940, "lng": 127.690 },
    { "code": "34010", "name": "아산시", "province": "충남", "lat": 36.790, "lng": 127.002 },
    { "code": "34020", "name": "태안군", "province": "충남", "lat": 36.745, "lng": 126.298 },
    { "code": "34030", "name": "서산시", "province": "충남", "lat": 36.785, "lng": 126.450 },
    { "code": "34040", "name": "부여군", "province": "충남", "lat": 36.276, "lng": 126.910 },
    { "code": "34050", "name": "논산시", "province": "충남", "lat": 36.187, "lng": 127.099 },
    { "code": "35010", "name": "김제시", "province": "전북", "lat": 35.803, "lng": 126.880 },
    { "code": "35020", "name": "고창군", "province": "전북", "lat": 35.436, "lng": 126.702 },
    { "code": "35030", "name": "부안군", "province": "전북", "lat": 35.732, "lng": 126.733 },
    { "code": "35040", "name": "정읍시", "province": "전북", "lat": 35.570, "lng": 126.856 },
    { "code": "35050", "name": "남원시", "province": "전북", "lat": 35.416, "lng": 127.390 },
    { "code": "36010", "name": "해남군", "province": "전남", "lat": 34.573, "lng": 126.599 },
    { "code": "36020", "name": "진도군", "province": "전남", "lat": 34.487, "lng": 126.263 },
    { "code": "36030", "name": "무안군", "province": "전남", "lat": 34.990, "lng": 126.482 },
    { "code": "36040", "name": "보성군", "province": "전남", "lat": 34.771, "lng": 127.080 },
    { "code": "36050", "name": "고흥군", "province": "전남", "lat": 34.611, "lng": 127.285 },
    { "code": "36060", "name": "나주시", "province": "전남", "lat": 35.016, "lng": 126.711 },
    { "code": "36070", "name": "영암군", "province": "전남", "lat": 34.800, "lng": 126.697 },
    { "code": "37010", "name": "의성군", "province": "경북", "lat": 36.353, "lng": 128.697 },
    { "code": "37020", "name": "영양군", "province": "경북", "lat": 36.667, "lng": 129.112 },
    { "code": "37030", "name": "안동시", "province": "경북", "lat": 36.568, "lng": 128.729 },
    { "code": "37040", "name": "영주시", "province": "경북", "lat": 36.806, "lng": 128.624 },
    { "code": "37050", "name": "상주시", "province": "경북", "lat": 36.411, "lng": 128.159 },
    { "code": "37060", "name": "청송군", "province": "경북", "lat": 36.436, "lng": 129.057 },
    { "code": "37070", "name": "경산시", "province": "경북", "lat": 35.825, "lng": 128.741 },
    { "code": "38010", "name": "창녕군", "province": "경남", "lat": 35.545, "lng": 128.492 },
    { "code": "38020", "name": "남해군", "province": "경남", "lat": 34.837, "lng": 127.892 },
    { "code": "38030", "name": "합천군", "province": "경남", "lat": 35.567, "lng": 128.166 },
    { "code": "38040", "name": "밀양시", "province": "경남", "lat": 35.504, "lng": 128.747 },
    { "code": "38050", "name": "진주시", "province": "경남", "lat": 35.180, "lng": 128.108 },
    { "code": "38060", "name": "거창군", "province": "경남", "lat": 35.687, "lng": 127.909 },
    { "code": "39010", "name": "제주시", "province": "제주", "lat": 33.499, "lng": 126.531 },
    { "code": "39020", "name": "서귀포시", "province": "제주", "lat": 33.254, "lng": 126.560 },
    { "code": "41010", "name": "달성군", "province": "대구", "lat": 35.774, "lng": 128.431 },
    { "code": "42010", "name": "울주군", "province": "울산", "lat": 35.522, "lng": 129.242 },
    { "code": "43010", "name": "광산구", "province": "광주", "lat": 35.139, "lng": 126.793 },
    { "code": "44010", "name": "유성구", "province": "대전", "lat": 36.362, "lng": 127.356 },
    { "code": "45010", "name": "연기면", "province": "세종", "lat": 36.480, "lng": 127.289 },
    { "code": "46010", "name": "기장군", "province": "부산", "lat": 35.244, "lng": 129.222 }
  ]
}
